id,company_name,address,city,state,zip_code,country,phone,email,website,cert_type,certified_tech_count,hvac_specialty,manufacturer_count,has_premium_brands,multi_brand_dealer,carries_geothermal,carries_mini_split,nate_certified_company,affiliate_number,latitude,longitude,distance_miles,dataset,source_url,crawl_date,crawl_session,dedup_hash,first_seen,last_seen,is_new
1,Morin Mechanical Services LLC,10 Bungalow St. PO Box 411,Southwick,MA,01077,United States,413-569-1313,,,,0,,0,No,No,No,No,Yes,C3-26612,42.0457015,-72.7619477,7.358996163712392,nate_hvac_certified_contractors,https://natex.org/homeowner/find-a-contractor-with-nate-certified-technicians/,2026-03-26T10:03:16.036326+00:00,20260326_094831,5b69d038d74712163a754f94c4f42fef,2026-03-25 21:38:45,2026-03-26 10:03:16,0
2,Aiello Home Services,600 Old County Circle,Windsor Locks,CT,06096,United States,860-292-2641,s.birch@aiellohomeservices.com,https://www.aiellohomeservices.com,,0,"American Standard, Goodman, Lennox",3,Yes,Yes,No,No,Yes,C3-55045,41.9109771,-72.660345,11.15881627531934,nate_hvac_certified_contractors,https://natex.org/homeowner/find-a-contractor-with-nate-certified-technicians/,2026-03-26T10:03:16.036326+00:00,20260326_094831,434fb9c1936b47e4e2bae13d20445dc7,2026-03-25 21:38:45,2026-03-26 10:03:16,0
3,Orchard Valley Heating and Cooling,29 Rattle Hill Rd,Southampton,MA,01073,United States,413-527-5812,jimp@orchardvalleyhc.com,https://www.orchardvalleyhc.com,,0,,0,No,No,No,No,Yes,C3-73187,42.250883,-72.7307812,13.64997258300257,nate_hvac_certified_contractors,https://natex.org/homeowner/find-a-contractor-with-nate-certified-technicians/,2026-03-26T10:03:16.036326+00:00,20260326_094831,e2cc2e7dec9e192c616e1a54653af1d1,2026-03-25 21:38:45,2026-03-26 10:03:16,0
4,Hipoint Heating and Cooling,71 Edwin Rd,South Windsor,CT,06074,United States,860-291-0181,pnavarro@hipointcooling.com,https://www.hipointcooling.com,,0,,0,No,No,No,No,Yes,C3-97005,41.8368088,-72.6070017,16.12829209066912,nate_hvac_certified_contractors,https://natex.org/homeowner/find-a-contractor-with-nate-certified-technicians/,2026-03-26T10:03:16.036326+00:00,20260326_094831,4b858703bca52715e69d5776fee67ebc,2026-03-25 21:38:45,2026-03-26 10:03:16,0
5,Valley A/C & Htg,129 West St,Simsbury Center,CT,06070,United States,860-6580371,valairheat@gmail.com,,,0,Trane,1,Yes,No,No,No,Yes,C3-61499,41.8699456,-72.8163784,17.04494186564228,nate_hvac_certified_contractors,https://natex.org/homeowner/find-a-contractor-with-nate-certified-technicians/,2026-03-26T10:03:16.036326+00:00,20260326_094831,2a221c55e013201b7850d026b16f2bc4,2026-03-25 21:38:45,2026-03-26 10:03:16,0
6,Pioneer Heating and Cooling,PO Box 531 23 Hooker Avenue,Northampton,MA,01061,United States,413-580-7925,tfpatriot@verizon.net,,,0,,0,No,No,No,No,Yes,C3-26772,42.3267219,-72.634786,17.716037393915148,nate_hvac_certified_contractors,https://natex.org/homeowner/find-a-contractor-with-nate-certified-technicians/,2026-03-26T10:03:16.036326+00:00,20260326_094831,7478f9fa42d5a211fe9a223be01ac4cb,2026-03-25 21:38:45,2026-03-26 10:03:16,0
7,Nutmeg Mechanical Service Inc.,130 utopia rd.,Manchester,CT,06042,United States,860-643-2042,henry@nutmegmechanical.com,http://nutmegmechanical.com,Quality,5,"Amana, Carrier, Goodman, Lennox",4,Yes,Yes,No,No,Yes,C3-40873,41.7966,-72.5292,19.488117154148302,nate_hvac_certified_contractors,https://natex.org/homeowner/find-a-contractor-with-nate-certified-technicians/,2026-03-26T10:03:16.036326+00:00,20260326_094831,6f148f342a2031fe88a9daf822c14a98,2026-03-25 21:38:45,2026-03-26 10:03:16,0
8,CS Heating & Air,638 Federal St,Belchertown,MA,01007,United States,413-323-0254,cshvacservice@gmail.com,,,0,"Amana, American Standard, Bryant, Carrier, Goodman, Heil, International Comfort Products, Lennox, Nordyne, Rheem, Ruud, Trane, York",13,Yes,Yes,No,No,Yes,C3-34409,42.318419,-72.434385,19.670346101437193,nate_hvac_certified_contractors,https://natex.org/homeowner/find-a-contractor-with-nate-certified-technicians/,2026-03-26T10:03:16.036326+00:00,20260326_094831,44dd1d948df80150730077e7f203ffe1,2026-03-25 21:38:45,2026-03-26 10:03:16,0
9,Connecticut Heating and Cooling LLC,1391 Silver Ln,East Hartford,CT,06118,United States,860-770-9088,dean@ctheatandcooling.com,https://www.ctheatandcooling.com,Standard,1,,0,No,No,No,No,Yes,C3-29641,41.7652435,-72.5824171,21.149287553947087,nate_hvac_certified_contractors,https://natex.org/homeowner/find-a-contractor-with-nate-certified-technicians/,2026-03-26T10:03:16.036326+00:00,20260326_094831,629675565554c502b8a09ccbf253ac74,2026-03-25 21:38:45,2026-03-26 10:03:16,0
10,Solvit Home Services,65 Farmington Valley Drive,Plainville,CT,06062,United States,877-765-8486,info@solvitnow.com,https://www.solvitnow.com,,0,"Amana, American Standard, Bryant, Carrier, Goodman, Heil, International Comfort Products, Lennox, Mitsubishi, Nordyne, Rheem, Ruud, Trane, WaterFurnace, York",15,Yes,Yes,Yes,Yes,Yes,C3-31966,41.6913746,-72.8615894,28.902905831006066,nate_hvac_certified_contractors,https://natex.org/homeowner/find-a-contractor-with-nate-certified-technicians/,2026-03-26T10:03:16.036326+00:00,20260326_094831,cd9e432b3ffbdd4991eb7ca4ffb03b34,2026-03-25 21:38:45,2026-03-26 10:03:16,0
11,Total Mechanical Systems,140 New Britain,Plainville,CT,06062,United States,860-990-1517  1,jay@tmsllc.biz,https://tmscomfort.com,,1,"Bryant, Rheem",2,No,No,No,No,Yes,C3-40746,41.6770686,-72.8485497,29.527767474088513,nate_hvac_certified_contractors,https://natex.org/homeowner/find-a-contractor-with-nate-certified-technicians/,2026-03-26T10:03:16.036326+00:00,20260326_094831,044c8ec4d4cb8bb03102f7edf53b1415,2026-03-25 21:38:45,2026-03-26 10:03:16,0
12,Lassen Heating & Cooling LLC,230 South Washington Street STESTE 15,Plainville,CT,06062,United States,860-951-5086,lassenheatingandcooling@comcast.net,https://www.lassenheatingandcooling.com,Basic,1,"American Standard, Bryant, Carrier, Heil, International Comfort Products, Mitsubishi, Trane, WaterFurnace",8,Yes,Yes,Yes,Yes,Yes,C3-40223,41.6568303,-72.8747088,31.351970847164985,nate_hvac_certified_contractors,https://natex.org/homeowner/find-a-contractor-with-nate-certified-technicians/,2026-03-26T10:03:16.036326+00:00,20260326_094831,e57a60fc16914d43b69104746e1407ee,2026-03-25 21:38:45,2026-03-26 10:03:16,0
13,"Absolute Air Services, LLC",10B Stack St.,Middletown,CT,06457,United States,860-666-4200,email@absolutairservices.com,https://www.absoluteairservices.com,,0,"Carrier, Goodman, Mitsubishi",3,Yes,Yes,No,Yes,Yes,C3-52303,41.5682902,-72.6546974,34.678950948893885,nate_hvac_certified_contractors,https://natex.org/homeowner/find-a-contractor-with-nate-certified-technicians/,2026-03-26T10:03:16.036326+00:00,20260326_094831,5c5a39e52a3615053045e1136522e233,2026-03-25 21:38:45,2026-03-26 10:03:16,0
14,F. F. Hitchcock Co.,264 Sandbank Road,Cheshire,CT,06410,United States,203-272-5400,john@ffhitchcock.com,https://www.ffhitchcock.com,,0,"Goodman, Lennox, WaterFurnace",3,Yes,Yes,Yes,No,Yes,C3-40343,41.5353004,-72.9012456,39.61953191165726,nate_hvac_certified_contractors,https://natex.org/homeowner/find-a-contractor-with-nate-certified-technicians/,2026-03-26T10:03:16.036326+00:00,20260326_094831,e1bef752b643c4e61621ffe1cf114398,2026-03-25 21:38:45,2026-03-26 10:03:16,0
15,Comfort Control Mechanical Inc.,81 Longview Terrace,Pittsfield,MA,01201,United States,413-841-2681,bradjmx4@gmail.com,https://comfortcontrolmechanical.com,,0,Trane,1,Yes,No,No,No,Yes,C3-79950,42.449839,-73.218568,40.248344485354,nate_hvac_certified_contractors,https://natex.org/homeowner/find-a-contractor-with-nate-certified-technicians/,2026-03-26T10:03:16.036326+00:00,20260326_094831,7657cee00193ee02cb45e9dc37df57c0,2026-03-25 21:38:45,2026-03-26 10:03:16,0
16,"Don Davis Heating, Cooling & Plumbing",316 Merrill Rd,Pittsfield,MA,01201,United States,413-443-7354,ddheat54@aol.com,https://www.dondavisheating.com,,0,,0,No,No,No,No,Yes,C3-95838,42.456085,-73.212951,40.312582604749274,nate_hvac_certified_contractors,https://natex.org/homeowner/find-a-contractor-with-nate-certified-technicians/,2026-03-26T10:03:16.036326+00:00,20260326_094831,169d202f554fcca28ddd4c65724a1432,2026-03-25 21:38:45,2026-03-26 10:03:16,0
17,Victory Mechanical Services,115 Mendon St,Bellingham,MA,02019,United States,508-966-9858,tcook32@victoryhvac.com,https://victoryhvac.com,,0,"Amana, American Standard, Bryant, Carrier, Goodman, Heil, International Comfort Products, Lennox, Nordyne, Rheem, Ruud, Trane, York",13,Yes,Yes,No,No,Yes,C3-92017,42.0871119,-71.4873421,58.388649804851866,nate_hvac_certified_contractors,https://natex.org/homeowner/find-a-contractor-with-nate-certified-technicians/,2026-03-26T10:03:16.036326+00:00,20260326_094831,6106395e31f5e98204629b258e082e20,2026-03-25 21:38:45,2026-03-26 10:03:16,0
18,"HomeServe USA Corp - Norwalk, CT",601 Merritt 7,Norwalk,CT,06851,United States,855-336-2465,randall.boutte@homeserveusa.com,https://www.homeserve.com/en-us/about-us/,,8,,0,No,No,No,No,Yes,C3-40726,41.1467171,-73.4270264,76.13977857019931,nate_hvac_certified_contractors,https://natex.org/homeowner/find-a-contractor-with-nate-certified-technicians/,2026-03-26T10:03:16.036326+00:00,20260326_094831,943d652e84b0070d15a54f6b03db3bec,2026-03-25 21:38:45,2026-03-26 10:03:16,0
19,BROAD U.S.A. Inc.,"401 Hackensack Ave, Suite 503",Hackensack,NJ,07601,United States,201-678-3010,hugochen@broadusa.com,https://broadusa.com/broad/,,1,,0,No,No,No,No,Yes,C3-40865,40.9085114,-74.0336353,108.56713458298131,nate_hvac_certified_contractors,https://natex.org/homeowner/find-a-contractor-with-nate-certified-technicians/,2026-03-26T10:03:16.036326+00:00,20260326_094831,6f2574733e6cd0fc1edd3a9671acecc3,2026-03-25 21:38:45,2026-03-26 10:03:16,0
20,"A. J. Perri, Inc.",1162 Pine brook Rd.,Tinton Falls,NJ,07724,United States,732-747-3131,aperri@ajperri.com,https://www.ajperri.com,,2,"Carrier, Lennox",2,Yes,No,No,No,Yes,C3-23629,40.2890034,-74.0831565,144.58454445142226,nate_hvac_certified_contractors,https://natex.org/homeowner/find-a-contractor-with-nate-certified-technicians/,2026-03-26T10:03:16.036326+00:00,20260326_094831,3cb7b4c24234f9af39cf7d53ddc0862d,2026-03-25 21:38:45,2026-03-26 10:03:16,0
21,"Chuck Russo Htg & A/C, LLC",48 Clove Rd,Castleton-on-Hudson,NY,12033,United States,518-732-2356,crhvac@nycap.rr.com,https://chuckrussoheatandair.com,,0,"Bryant, Carrier, York",3,Yes,Yes,No,No,Yes,C3-58912,42.5038709,-73.736455,25.247265128697997,nate_hvac_certified_contractors,https://natex.org/homeowner/find-a-contractor-with-nate-certified-technicians/,2026-03-26T10:03:16.036326+00:00,20260326_094831,f9453b5dd23a63b31b2aee79a308beea,2026-03-25 21:38:45,2026-03-26 10:03:16,0
22,Family Danz,404 N Pearl St,Albany,NY,12207,United States,518-427-8685,info@familydanz.com,https://www.familydanz.com,Quality,1,"Bryant, Trane",2,Yes,No,No,No,Yes,C3-19614,42.663186,-73.745118,29.25934697041728,nate_hvac_certified_contractors,https://natex.org/homeowner/find-a-contractor-with-nate-certified-technicians/,2026-03-26T10:03:16.036326+00:00,20260326_094831,85a42b0507e89a0937484d80b9559482,2026-03-25 21:38:45,2026-03-26 10:03:16,0
23,"Ridgeline Heating and Cooling, LLC",376 KENWOOD AVE,DELMAR,NY,12054,United States,518-694-6967,paul.f@ridgelinecomfort.com,https://ridgelinecomfort.com,,0,"Carrier, Mitsubishi",2,Yes,No,No,Yes,Yes,C3-40623,42.621711,-73.8315911,32.02519914804121,nate_hvac_certified_contractors,https://natex.org/homeowner/find-a-contractor-with-nate-certified-technicians/,2026-03-26T10:03:16.036326+00:00,20260326_094831,d648f04e64030d079c932e51fe6a7f29,2026-03-25 21:38:45,2026-03-26 10:03:16,0
24,Adams Htg & Clg,2088 Curry Rd,Schenectady,NY,12303,United States,518-356-4730,johnr@adams-heat.com,https://www.adams-heating.net,,0,"Bryant, Rheem",2,No,No,No,No,Yes,C3-17007,42.7745536,-73.9527917,42.2700784590759,nate_hvac_certified_contractors,https://natex.org/homeowner/find-a-contractor-with-nate-certified-technicians/,2026-03-26T10:03:16.036326+00:00,20260326_094831,37d48d6acd01dd5a07b97dfd854edc30,2026-03-25 21:38:45,2026-03-26 10:03:16,0
25,Veritas Heating and Cooling,200 Normanskill Drive,Princetown,NY,12056,United States,518-389-8613,adamostrander@veritasheatingandcooling.com,https://www.veritasheatingandcooling.com,,0,Heil,1,No,No,No,No,Yes,C3-40181,42.773171,-74.041325,46.127325907744684,nate_hvac_certified_contractors,https://natex.org/homeowner/find-a-contractor-with-nate-certified-technicians/,2026-03-26T10:03:16.036326+00:00,20260326_094831,071d91fe03cc0609a09e412296e1c53f,2026-03-25 21:38:45,2026-03-26 10:03:16,0
26,"Pinder Service Company, Inc",11994 Kennedyville Road BLDGBLDG,Kennedyville,MD,21645,United States,410-348-5263,mlayton@shoredist.com,https://pinderservicecompany.com,,1,Carrier,1,Yes,No,No,No,Yes,C3-40394,39.3060631,-75.9958625,260.50929921133036,nate_hvac_certified_contractors,https://natex.org/homeowner/find-a-contractor-with-nate-certified-technicians/,2026-03-26T10:03:16.036326+00:00,20260326_094831,c72a6260e81c06e4f43be65a7669351d,2026-03-25 21:38:45,2026-03-26 10:03:16,0
27,"360 AIR TECH,LLC",5812 Mooretown Rd Suite G,Williamsburg,VA,23188,United States,757-630-7678,info@360airtech.com,https://www.360airtech.com,,0,"American Standard, Mitsubishi",2,Yes,No,No,Yes,Yes,C3-40692,37.3234368,-76.7349064,399.4208479595374,nate_hvac_certified_contractors,https://natex.org/homeowner/find-a-contractor-with-nate-certified-technicians/,2026-03-26T10:03:16.036326+00:00,20260326_094831,d53bdc3a48bbf08d745c39831bc1292d,2026-03-25 21:38:45,2026-03-26 10:03:16,0
28,Koch and White,2608 W. Liberty BLDGBLDG,Ann Arbor,MI,48103,United States,734-663-0204  9118,stevej@koch-white.com,https://WWW.KOCH-WHITE.COM,,2,Carrier,1,Yes,No,No,No,Yes,C3-40694,42.2730345,-83.7820026,539.0513010435467,nate_hvac_certified_contractors,https://natex.org/homeowner/find-a-contractor-with-nate-certified-technicians/,2026-03-26T10:03:16.037347+00:00,20260326_094831,f90abb33473c00743dd41225c1c02aa2,2026-03-25 21:38:45,2026-03-26 10:03:16,0
29,Family Plumbing and Heating,519 W. 2nd Street,Gaylord,MI,49735,United States,989-732-8099,angela@familycomfortsystems.com,http://www.familyplumbingandheating.com,Standard,2,Bryant,1,No,No,No,No,Yes,C3-40762,45.0253437,-84.6808156,598.6327918655217,nate_hvac_certified_contractors,https://natex.org/homeowner/find-a-contractor-with-nate-certified-technicians/,2026-03-26T10:03:16.037347+00:00,20260326_094831,dfdb1b2ee63bb3115919878713e36c87,2026-03-25 21:38:45,2026-03-26 10:03:16,0
30,Comfort Zone of North Florida Inc,2000 WELLS RD SUITE CSUITE C,ORANGE PARK,FL,32073,United States,904-406-0070,comfortzoneofnf@comcast.net,https://www.comfortzoneofnf.com,Standard,2,Bryant,1,No,No,No,No,Yes,C3-40512,30.186035,-81.743029,968.3771000159487,nate_hvac_certified_contractors,https://natex.org/homeowner/find-a-contractor-with-nate-certified-technicians/,2026-03-26T10:03:16.037347+00:00,20260326_094831,d345c4358951a53ddaf6a5e2fcf8816c,2026-03-25 21:38:45,2026-03-26 10:03:16,0
31,Ed MacGray Heating and Cooling,21 Mohawk Trail PMB266,Greenfield,MA,01301,United States,413-834-1503,edward_macgray@comcast.net,,,0,,0,No,No,No,No,Yes,C3-83627,42.6013,-72.6236,,nate_hvac_certified_contractors,https://natex.org/homeowner/find-a-contractor-with-nate-certified-technicians/,2026-03-26T10:03:16.037347+00:00,20260326_094831,2961756aeda8ef7230c6c46bab13a076,2026-03-25 21:38:45,2026-03-26 10:03:16,0
32,"Josephs, LLC",7A Railroad St.,S. Deerfield,MA,01342,United States,413-773-3200,josephsheating@yahoo.com,https://www.josephsiaq.com,,0,,0,No,No,No,No,Yes,C3-15561,42.479039,-72.610309,8.46620079032549,nate_hvac_certified_contractors,https://natex.org/homeowner/find-a-contractor-with-nate-certified-technicians/,2026-03-26T10:03:16.037347+00:00,20260326_094831,7433af3874d731a501ce34c4354ee2a6,2026-03-25 21:38:45,2026-03-26 10:03:16,0
33,"A. L. Tyler & Sons, Inc.",175 Canal St,Brattleboro,VT,05301,United States,802-254-9309,,,,0,,0,No,No,No,No,Yes,C3-68976,42.847119,-72.562529,17.250333833358507,nate_hvac_certified_contractors,https://natex.org/homeowner/find-a-contractor-with-nate-certified-technicians/,2026-03-26T10:03:16.037347+00:00,20260326_094831,cd964eb05ea0e0da4d0bc710e794cb9c,2026-03-25 21:38:45,2026-03-26 10:03:16,0
34,KABRAN AIR CONDITIONING & HEATING,62 S Atlantic Ave BLDGBLDG,Cocoa Beach,FL,32952,United States,321-784-0127  101,michael@kabran.com,https://kabran.com,,1,"Amana, Bryant, Carrier, Rheem, Trane",5,Yes,Yes,No,No,Yes,C3-40506,28.3173762,-80.6091145,1081.599294320184,nate_hvac_certified_contractors,https://natex.org/homeowner/find-a-contractor-with-nate-certified-technicians/,2026-03-26T10:03:16.037347+00:00,20260326_094831,ffaf7a5e5c8ceffb66d9c449c6efdc74,2026-03-25 21:38:45,2026-03-26 10:03:16,0
35,"AAIR Systems Technologies, LLC",275 Oxford Street North,Auburn,MA,01501,United States,508-829-7740,aairsystems@verizon.net,,Basic,1,,0,No,No,No,No,Yes,C3-75522,42.2088238,-71.8468076,0.45722385759918416,nate_hvac_certified_contractors,https://natex.org/homeowner/find-a-contractor-with-nate-certified-technicians/,2026-03-26T10:03:16.037347+00:00,20260326_094831,c725df07ca9df53cdad93a850e64d581,2026-03-25 21:38:45,2026-03-26 10:03:16,0
36,Thackaberry Heating & Cooling Inc.,209 Purchase St.,Milford,MA,01757,United States,508-478-3825,davethack@thackaberryhvac.com,https://thackaberryhvac.com,,0,,0,No,No,No,No,Yes,C3-42977,42.1691211,-71.5288569,16.1214448416026,nate_hvac_certified_contractors,https://natex.org/homeowner/find-a-contractor-with-nate-certified-technicians/,2026-03-26T10:03:16.037347+00:00,20260326_094831,a833e91302d32a45d41d36baa3df648d,2026-03-25 21:38:45,2026-03-26 10:03:16,0
37,"Boucher Energy Systems, Inc.",88 Millville St,Mendon,MA,01756,United States,508-473-6648,tina@boucherenergy.com,https://www.boucherenergy.com,,0,"American Standard, Mitsubishi, Trane",3,Yes,Yes,No,Yes,Yes,C3-69784,42.087193,-71.561185,16.444972600348134,nate_hvac_certified_contractors,https://natex.org/homeowner/find-a-contractor-with-nate-certified-technicians/,2026-03-26T10:03:16.037347+00:00,20260326_094831,7a8925d9987fdc5583c1b948d32105e5,2026-03-25 21:38:45,2026-03-26 10:03:16,0
38,CPS Corporation,"41 Brigham Street, Unit #12",Marlborough,MA,01752,United States,508-460-6691,pbaldwin@cpshvac.com,https://www.cpshvac.com,,0,,0,No,No,No,No,Yes,C3-23732,42.3320848,-71.5429201,17.517649461737495,nate_hvac_certified_contractors,https://natex.org/homeowner/find-a-contractor-with-nate-certified-technicians/,2026-03-26T10:03:16.037347+00:00,20260326_094831,94ba0e693d6e44a9c4e5ffcba15242af,2026-03-25 21:38:45,2026-03-26 10:03:16,0
39,Middlesex Cooling Inc.,57 Florence St,Marlborough,MA,01752,United States,508-481-4202,info@middlesexcooling.com,https://www.middlesexcooling.com,,0,,0,No,No,No,No,Yes,C3-88133,42.3446114,-71.5486553,17.715480212475722,nate_hvac_certified_contractors,https://natex.org/homeowner/find-a-contractor-with-nate-certified-technicians/,2026-03-26T10:03:16.037347+00:00,20260326_094831,9afe698b27a50b9982252cb30a468609,2026-03-25 21:38:45,2026-03-26 10:03:16,0
40,Choice Heating & Cooling,115 Summer St,Blackstone,MA,01504,United States,508-463-5605,choicehtg@comcast.net,,,0,,0,No,No,No,No,Yes,C3-88245,42.0345922,-71.534006,19.61916108331992,nate_hvac_certified_contractors,https://natex.org/homeowner/find-a-contractor-with-nate-certified-technicians/,2026-03-26T10:03:16.037347+00:00,20260326_094831,5abfe4e2582b5b21ebe6ab138069a86b,2026-03-25 21:38:45,2026-03-26 10:03:16,0
41,"Chaves Htg & A/C, Inc",15 Bonazzoli Avenue,Hudson,MA,01749,United States,978-562-5309,info@chaveshvac.com,https://www.chaveshvac.com,,0,,0,No,No,No,No,Yes,C3-17934,42.3913135,-71.5482661,19.661137981709242,nate_hvac_certified_contractors,https://natex.org/homeowner/find-a-contractor-with-nate-certified-technicians/,2026-03-26T10:03:16.037347+00:00,20260326_094831,c35ff20b83b8cd988528b5ff6fc9ba79,2026-03-25 21:38:45,2026-03-26 10:03:16,0
42,Rodenhiser Plbg,71 Whitney St,Holliston,MA,01746,United States,508-429-9589,,https://www.rodenhiser.com,,0,,0,No,No,No,No,Yes,C3-42957,42.2155722,-71.4084368,22.108681198940328,nate_hvac_certified_contractors,https://natex.org/homeowner/find-a-contractor-with-nate-certified-technicians/,2026-03-26T10:03:16.037347+00:00,20260326_094831,a471b1776855f0b148dd35488aecd982,2026-03-25 21:38:45,2026-03-26 10:03:16,0
43,Top Notch HVAC,1 Main Street,Medway,MA,02053,United States,508-254-2517,dlynniii@yahoo.com,,,0,"American Standard, Carrier, Goodman, Rheem, Trane",5,Yes,Yes,No,No,Yes,C3-79505,42.156885,-71.389308,23.3324686782007,nate_hvac_certified_contractors,https://natex.org/homeowner/find-a-contractor-with-nate-certified-technicians/,2026-03-26T10:03:16.037347+00:00,20260326_094831,affb834110159aa126586a422f0fb3f5,2026-03-25 21:38:45,2026-03-26 10:03:16,0
44,"JBD Air Conditioning & Heating Services, Inc.",PO Box 217,Franklin,MA,02038,United States,508-528-2532,service@jbdhvac.com,https://www.jbdhvac.com,,0,"American Standard, Carrier, Goodman, Mitsubishi, Trane, York",6,Yes,Yes,No,Yes,Yes,C3-40527,42.0935,-71.4058,23.558761659596012,nate_hvac_certified_contractors,https://natex.org/homeowner/find-a-contractor-with-nate-certified-technicians/,2026-03-26T10:03:16.037347+00:00,20260326_094831,6bd91bed1e7881b064534ea4a17a803e,2026-03-25 21:38:45,2026-03-26 10:03:16,0
45,"J. Lawrence Hall Co., Inc.",17 Progress Avenue,Nashua,NH,03062,United States,603-882-2021,chall@jlawrencehall.com,https://www.jlawrencehall.com,,0,"American Standard, Carrier, Mitsubishi, Trane",4,Yes,Yes,No,Yes,Yes,C3-45149,42.740616,-71.4912615,40.98946988049831,nate_hvac_certified_contractors,https://natex.org/homeowner/find-a-contractor-with-nate-certified-technicians/,2026-03-26T10:03:16.037347+00:00,20260326_094831,d26c54130a213c39d8222987b9b577dd,2026-03-25 21:38:45,2026-03-26 10:03:16,0
46,HomeServe USA (New England),5 Constitution Way Site B,Woburn,MA,01801,United States,855-336-2465,randall.boutte@homeserveusa.com,http://Homeserve.com,Standard,33,"Amana, American Standard, Bryant, Carrier, Goodman, Heil, International Comfort Products, Lennox, Mitsubishi, Nordyne, Rheem, Ruud, Trane, York",14,Yes,Yes,No,Yes,Yes,C3-40764,42.5096919,-71.1293478,41.963509298657684,nate_hvac_certified_contractors,https://natex.org/homeowner/find-a-contractor-with-nate-certified-technicians/,2026-03-26T10:03:16.037347+00:00,20260326_094831,7325c4ed581314fa1e714539897a710f,2026-03-25 21:38:45,2026-03-26 10:03:16,0
47,Card Heating & Cooling Inc.,51 N River Rd,Milford,NH,03055,United States,603-673-9767,mike@cardhvac.com,https://www.cardhvac.com,,0,,0,No,No,No,No,Yes,C3-53645,42.8430952,-71.6622211,44.92639366989676,nate_hvac_certified_contractors,https://natex.org/homeowner/find-a-contractor-with-nate-certified-technicians/,2026-03-26T10:03:16.037347+00:00,20260326_094831,7f0b53dfd2d0caa7c7d62a85574922ba,2026-03-25 21:38:45,2026-03-26 10:03:16,0
48,RR Services Inc.,376 Milford Road BLDGBLDG,Swansea,MA,02777,United States,508-674-8428,rrsinc@comcast.net,https://www.rrservs.com,Basic,1,"Amana, American Standard, Bryant, Carrier, Goodman, International Comfort Products, Lennox, Mitsubishi, Rheem, Trane, York",11,Yes,Yes,No,Yes,Yes,C3-40422,41.7499737,-71.2092788,45.17128020065102,nate_hvac_certified_contractors,https://natex.org/homeowner/find-a-contractor-with-nate-certified-technicians/,2026-03-26T10:03:16.037347+00:00,20260326_094831,daa0d60df748294f8801098199a2de04,2026-03-25 21:38:45,2026-03-26 10:03:16,0
49,"Air Design Services, Inc.",2305 Columbia Cir,Merrimack,NH,03054,United States,603-429-9882,airdesign@hotmail.com,https://www.airdesignservicesinc.com,,0,,0,No,No,No,No,Yes,C3-50812,42.8510752,-71.4948056,47.901626115423355,nate_hvac_certified_contractors,https://natex.org/homeowner/find-a-contractor-with-nate-certified-technicians/,2026-03-26T10:03:16.037347+00:00,20260326_094831,e327415b0269695d80c3fc458d7e29e3,2026-03-25 21:38:45,2026-03-26 10:03:16,0
50,LeBlanc Mechanical LLC,1250 R Main Street,Waltham,MA,02452,United States,617-719-5572,randy@leblancmechanical.com,https://www.leblancmechanical.com,,0,,0,No,No,No,No,Yes,C3-62569,42.3762678,-71.2630854,9.817041890321043,nate_hvac_certified_contractors,https://natex.org/homeowner/find-a-contractor-with-nate-certified-technicians/,2026-03-26T10:03:16.037347+00:00,20260326_094831,fe2fcca6bf26cfb2aaca825dd35f6c86,2026-03-25 21:38:45,2026-03-26 10:03:16,0
51,Keyes North Atlantic Inc.,,Newton,MA,02465,United States,617-964-6180,paulm@keyesweb.com,https://www.keyesweb.com,,1,,0,No,No,No,No,Yes,C3-29056,42.3492,-71.2267,10.718362481117119,nate_hvac_certified_contractors,https://natex.org/homeowner/find-a-contractor-with-nate-certified-technicians/,2026-03-26T10:03:16.037347+00:00,20260326_094831,7c7badd36a75f2924e0acc5d9f777261,2026-03-25 21:38:45,2026-03-26 10:03:16,0
52,Suburban Sheet Metal & Service Corporation,16 Southwest Park,Westwood,MA,02090,United States,781-769-1515,cvito@suburban-hvac.com,https://www.suburban-hvac.com,,1,"Carrier, Goodman",2,Yes,No,No,No,Yes,C3-96512,42.2248333,-71.181612,13.556007302627648,nate_hvac_certified_contractors,https://natex.org/homeowner/find-a-contractor-with-nate-certified-technicians/,2026-03-26T10:03:16.037347+00:00,20260326_094831,8273a115652b4cdce218eab6979d87e6,2026-03-25 21:38:45,2026-03-26 10:03:16,0
53,"Muirfield Mechanical Services, LLC",80 Littlefield Road,Boxborough,MA,01719,United States,978-263-7130,rmallard@muirfieldmechanical.com,https://www.muirfieldmechanical.com,,0,,0,No,No,No,No,Yes,C3-78010,42.49409,-71.48065,13.643196539169683,nate_hvac_certified_contractors,https://natex.org/homeowner/find-a-contractor-with-nate-certified-technicians/,2026-03-26T10:03:16.037347+00:00,20260326_094831,226e21f3794d0b369c2c7b0a49682ac0,2026-03-25 21:38:45,2026-03-26 10:03:16,0
54,Davco A/C Corp,930 Pleasant Street,Norwood,MA,02062,United States,781-769-2303,davcoair@verizon.net,https://www.davcoair.com,,0,"Amana, American Standard, Bryant, Carrier, Goodman, Heil, International Comfort Products, Lennox, Mitsubishi, Nordyne, Rheem, Ruud, Trane, York",14,Yes,Yes,No,Yes,Yes,C3-99582,42.167888,-71.204911,14.561764964371447,nate_hvac_certified_contractors,https://natex.org/homeowner/find-a-contractor-with-nate-certified-technicians/,2026-03-26T10:03:16.037347+00:00,20260326_094831,ac36a9531386606c0921da03d163e09f,2026-03-25 21:38:45,2026-03-26 10:03:16,0
55,"Acton Refrigeration, Inc.",241 Taylor Street,Littleton,MA,01460,United States,1-800-859-5409,aref241r@yahoo.com,https://actonrefrigeration.com,,0,"Amana, American Standard, Bryant, Carrier, Goodman, Heil, Lennox, Mitsubishi, Nordyne, Rheem, Ruud, Trane, York",13,Yes,Yes,No,Yes,Yes,C3-14921,42.513702,-71.510903,15.337255947079251,nate_hvac_certified_contractors,https://natex.org/homeowner/find-a-contractor-with-nate-certified-technicians/,2026-03-26T10:03:16.037347+00:00,20260326_094831,b1a542e7477b51e6f530b742b90429e7,2026-03-25 21:38:45,2026-03-26 10:03:16,0
56,B & D Air Conditioning & Gas Heating Inc.,80 Plantation Circle,Norwood,MA,02062,United States,781-762-7709,service@bdhvac.com,https://www.bdhvac.com,,0,,0,No,No,No,No,Yes,C3-30171,42.15393,-71.19482,15.57710453740797,nate_hvac_certified_contractors,https://natex.org/homeowner/find-a-contractor-with-nate-certified-technicians/,2026-03-26T10:03:16.037347+00:00,20260326_094831,5a2bcb89f6697a65d174a46b3ba08147,2026-03-25 21:38:45,2026-03-26 10:03:16,0
57,"Nashoba Air, Inc.",527 Great Road,Littleton,MA,01460,United States,978-486-0600,info@nashobaair.com,https://www.nashobaair.com,,0,,0,No,No,No,No,Yes,C3-14584,42.5563239,-71.485002,17.904321440689348,nate_hvac_certified_contractors,https://natex.org/homeowner/find-a-contractor-with-nate-certified-technicians/,2026-03-26T10:03:16.037347+00:00,20260326_094831,61d133f3930fc688825bb338c562e4d2,2026-03-25 21:38:45,2026-03-26 10:03:16,0
58,Climate Technologies,21 Everett Street,Woburn,MA,01801,United States,781-933-7878,quality@ctc4comfort.com,https://www.ctc4comfort.com,,0,,0,No,No,No,No,Yes,C3-55355,42.4808389,-71.1498611,18.80133182418535,nate_hvac_certified_contractors,https://natex.org/homeowner/find-a-contractor-with-nate-certified-technicians/,2026-03-26T10:03:16.037347+00:00,20260326_094831,b3471f315b3529bb214f5bd146b1696b,2026-03-25 21:38:45,2026-03-26 10:03:16,0
59,MAC HVAC,3 Acre Rd,Billerica,MA,01821,United States,978-670-5670,info@mac-hvac.com,https://www.mac-hvac.com,,0,American Standard,1,No,No,No,No,Yes,C3-82067,42.558471,-71.2569,19.770730629070215,nate_hvac_certified_contractors,https://natex.org/homeowner/find-a-contractor-with-nate-certified-technicians/,2026-03-26T10:03:16.037347+00:00,20260326_094831,bd73c33c8227967290fc129c0b9cfa7e,2026-03-25 21:38:45,2026-03-26 10:03:16,0
60,"Total Comfort Mechanical, Inc.",7 Glen Avenue,Burlington,MA,01803,United States,781-697-9016,totalcomfort@live.com,https://www.TotalComfortMech.com,Standard,1,"Amana, American Standard, Goodman, Mitsubishi, Trane",5,Yes,Yes,No,Yes,Yes,C3-69882,42.492857,-71.177398,1.231275419205824,nate_hvac_certified_contractors,https://natex.org/homeowner/find-a-contractor-with-nate-certified-technicians/,2026-03-26T10:03:16.037347+00:00,20260326_094831,fe2b3ab03da1c3df47fb6e03f7b5ae05,2026-03-25 21:38:45,2026-03-26 10:03:16,0
61,Suburban Heating & Cooling Inc.,26 Henshaw St,Woburn,MA,01801,United States,781-932-7815,jf77734@juno.com,https://www.suburbanheatandcooling.com,,0,"American Standard, Bryant, Carrier, Trane",4,Yes,Yes,No,No,Yes,C3-47808,42.47814,-71.118662,2.006284857503875,nate_hvac_certified_contractors,https://natex.org/homeowner/find-a-contractor-with-nate-certified-technicians/,2026-03-26T10:03:16.037347+00:00,20260326_094831,ab5b95001c226dd621990cb06ed1db6f,2026-03-25 21:38:45,2026-03-26 10:03:16,0
62,Central Cooling & Heating,9 N Maple St,Woburn,MA,01801,United States,781-933-8288,bburnett@centralcooling.com,https://www.centralcooling.com,Quality,18,"Carrier, Mitsubishi",2,Yes,No,No,Yes,Yes,C3-27375,42.515243,-71.150003,2.264180603035361,nate_hvac_certified_contractors,https://natex.org/homeowner/find-a-contractor-with-nate-certified-technicians/,2026-03-26T10:03:16.037347+00:00,20260326_094831,ae5c05b8b6afacd8bbd4f1cdd0879ee8,2026-03-25 21:38:45,2026-03-26 10:03:16,0
63,Boston Unique,12 Manison Street #4,Stoneham,MA,02180,United States,781-438-9304,beyet@phillyunique.com,https://www.bostonunique.com,,0,,0,No,No,No,No,Yes,C3-45152,42.4783455,-71.1107262,2.405283800072745,nate_hvac_certified_contractors,https://natex.org/homeowner/find-a-contractor-with-nate-certified-technicians/,2026-03-26T10:03:16.037347+00:00,20260326_094831,834c03a50f1075a140a171931db862af,2026-03-25 21:38:45,2026-03-26 10:03:16,0
64,"Cooling Unlimited, Inc.",565 Main Street,Reading,MA,01867,United States,781-944-1030,sales@coolingunlimitedinc.com,https://www.coolingunlimited.com,,0,,0,No,No,No,No,Yes,C3-27268,42.5230296,-71.1028168,3.92988144499523,nate_hvac_certified_contractors,https://natex.org/homeowner/find-a-contractor-with-nate-certified-technicians/,2026-03-26T10:03:16.037347+00:00,20260326_094831,df08ad654f06bf700acf931e53a95527,2026-03-25 21:38:45,2026-03-26 10:03:16,0
65,Keating Service Co.;Inc.,51 Harrison Ave,Peabody,MA,01960-2239,United States,978-535-6752,emmk911@comcast.net,,,0,,0,No,No,No,No,Yes,C3-36852,42.554829,-71.01718,8.712709989630136,nate_hvac_certified_contractors,https://natex.org/homeowner/find-a-contractor-with-nate-certified-technicians/,2026-03-26T10:03:16.037347+00:00,20260326_094831,34406720cc82073b06a8786f41c8c8fc,2026-03-25 21:38:45,2026-03-26 10:03:16,0
66,American Air Inc.,164 Lorum St.,Tewksbury,MA,01876,United States,978-640-8880,jill@americanairinc.com,https://www.americanairinc.com,,0,,0,No,No,No,No,Yes,C3-40127,42.6214188,-71.2552993,10.787847719842867,nate_hvac_certified_contractors,https://natex.org/homeowner/find-a-contractor-with-nate-certified-technicians/,2026-03-26T10:03:16.037347+00:00,20260326_094831,170fdbecb3d73c7561f97fc12128b46e,2026-03-25 21:38:45,2026-03-26 10:03:16,0
67,Franks Heating Service,555 Woburn St.,Tewksbury,MA,01876,United States,978-851-4403,brianp@franksheating.com,https://www.Franksheating.com,,0,,0,No,No,No,No,Yes,C3-49527,42.6091589,-71.2853322,10.889637004693785,nate_hvac_certified_contractors,https://natex.org/homeowner/find-a-contractor-with-nate-certified-technicians/,2026-03-26T10:03:16.037347+00:00,20260326_094831,011e4cab0dab117a267d5ebc95ef0a1b,2026-03-25 21:38:45,2026-03-26 10:03:16,0
68,NextGen Aire,18 Ayers Village Road Building 1 Unit 4Building 1 Unit 4,Methuen,MA,01844,United States,978-566-9601,matt@nextgen-aire.com,http://www.nextgen-aire.com,Basic,1,"Bryant, Carrier, Goodman, Heil, Mitsubishi, Rheem",6,Yes,Yes,No,Yes,Yes,C3-40913,42.728,-71.181,16.960783453395948,nate_hvac_certified_contractors,https://natex.org/homeowner/find-a-contractor-with-nate-certified-technicians/,2026-03-26T10:03:16.037347+00:00,20260326_094831,5ad93e8f1c36192772fa1d733c150292,2026-03-25 21:38:45,2026-03-26 10:03:16,0
69,Preferred Air Inc,461 Boston St,Topsfield,MA,01983,United States,978-750-8282,tomfavazza@preferredair.com,https://www.PreferredAir.com,,0,"Amana, American Standard, Bryant, Carrier, Goodman, Heil, International Comfort Products, Lennox, Mitsubishi, Nordyne, Rheem, Ruud, Trane, York",14,Yes,Yes,No,Yes,Yes,C3-87097,42.662886,-70.9289452,17.034717595110283,nate_hvac_certified_contractors,https://natex.org/homeowner/find-a-contractor-with-nate-certified-technicians/,2026-03-26T10:03:16.037347+00:00,20260326_094831,f9adfb4d5c93a77ea27093f3d53e8d91,2026-03-25 21:38:45,2026-03-26 10:03:16,0
70,"Summit Air Systems,LLC",20 Ricker Cir,Hamilton,MA,01982,United States,1-888-888-9338,krogers@summitairsystems.com,https://WWW.SUMMITAIRSYSTEMS.COM,,0,,0,No,No,No,No,Yes,C3-70983,42.6239191,-70.8815422,17.115152111615178,nate_hvac_certified_contractors,https://natex.org/homeowner/find-a-contractor-with-nate-certified-technicians/,2026-03-26T10:03:16.037347+00:00,20260326_094831,bfc03a3dc363831b829525ca9544a577,2026-03-25 21:38:45,2026-03-26 10:03:16,0
71,Buonagurio HVAC,9 Campbell St,Methuen,MA,01844,United States,617-334-4444,buonaguriohvac@hotmail.com,https://www.buonaguriohvac.com,,0,,0,No,No,No,No,Yes,C3-97041,42.7454167,-71.1307886,18.170977042248982,nate_hvac_certified_contractors,https://natex.org/homeowner/find-a-contractor-with-nate-certified-technicians/,2026-03-26T10:03:16.037347+00:00,20260326_094831,8a16490c38d22dc320bdf85243b321b9,2026-03-25 21:38:45,2026-03-26 10:03:16,0
72,Dynatemp HVAC Contractors,5 Cedarwood Rd,Gloucester,MA,01930,United States,978-282-4658,tcdynatemphvac@comcast.net,,Quality,1,,0,No,No,No,No,Yes,C3-64568,42.633685,-70.709717,16.971555577244203,nate_hvac_certified_contractors,https://natex.org/homeowner/find-a-contractor-with-nate-certified-technicians/,2026-03-26T10:03:16.037347+00:00,20260326_094831,e21998a63a55a8700363e3b50d1d81a1,2026-03-25 21:38:45,2026-03-26 10:03:16,0
73,"M.J. Evans Company, Inc",35 Riverview Road,Gloucester,MA,01930,United States,978-283-8710,mje@mjevanscompany.com,https://www.mjevanscompany.com,,0,,0,No,No,No,No,Yes,C3-46391,42.631023,-70.6861349,17.7274539808371,nate_hvac_certified_contractors,https://natex.org/homeowner/find-a-contractor-with-nate-certified-technicians/,2026-03-26T10:03:16.037347+00:00,20260326_094831,cca41239449b9d8eb5063cb946c61c72,2026-03-25 21:38:45,2026-03-26 10:03:16,0
74,Neilan Mechanical,,Abington,MA,02351,United States,781-871-9013,neilanmechanical@att.net,,,0,,0,No,No,No,No,Yes,C3-63011,42.1167,-70.9543,17.91656985445218,nate_hvac_certified_contractors,https://natex.org/homeowner/find-a-contractor-with-nate-certified-technicians/,2026-03-26T10:03:16.037347+00:00,20260326_094831,5268144a18dd0b1c1bf42bebb851695a,2026-03-25 21:38:45,2026-03-26 10:03:16,0
75,"Reliance Air Systems, Inc",1915 Corporate Park Dr,Pembroke,MA,02359,United States,781-829-8879,info@relianceairsystems.com,https://www.relianceairsystems.com,,0,,0,No,No,No,No,Yes,C3-86825,42.102644,-70.768453,18.056290049089625,nate_hvac_certified_contractors,https://natex.org/homeowner/find-a-contractor-with-nate-certified-technicians/,2026-03-26T10:03:16.038344+00:00,20260326_094831,1aa536dd31a8b15cae71a20b95e048d8,2026-03-25 21:38:45,2026-03-26 10:03:16,0
76,Groombridge HVAC,575 Lincoln St,Duxbury,MA,02332,United States,1-781-249-3839,groombridge@msn.com,,,0,,0,No,No,No,No,Yes,C3-70469,42.0682795,-70.7199819,21.302851312353766,nate_hvac_certified_contractors,https://natex.org/homeowner/find-a-contractor-with-nate-certified-technicians/,2026-03-26T10:03:16.038344+00:00,20260326_094831,2a6f9a696a5a60e0cf0b30943e9185e6,2026-03-25 21:38:45,2026-03-26 10:03:16,0
77,"James Spearin Heating & Air Conditioning, Inc.",438 County Street,Taunton,MA,02780,United States,1-508-813-7541,jamesspearin@verizon.net,https://spearinhvac.com,,0,,0,No,No,No,No,Yes,C3-94733,41.890199,-71.069783,13.147940495873733,nate_hvac_certified_contractors,https://natex.org/homeowner/find-a-contractor-with-nate-certified-technicians/,2026-03-26T10:03:16.038344+00:00,20260326_094831,d99181c25bf5bd11a3105e1b221613d0,2026-03-25 21:38:45,2026-03-26 10:03:16,0
78,Ocean State Air Solutions,1844 E. Main Road,Portsmouth,RI,02871-1236,United States,401-293-0422,amber@oceanstateair.com,http://www.oceanstateair.com,Basic,5,"Bryant, Carrier, Mitsubishi, Rheem",4,Yes,Yes,No,Yes,Yes,C3-40844,41.5815745,-71.2528906,36.0722788156739,nate_hvac_certified_contractors,https://natex.org/homeowner/find-a-contractor-with-nate-certified-technicians/,2026-03-26T10:03:16.038344+00:00,20260326_094831,0efcc05ebbaf9cb29b514ed07ded2170,2026-03-25 21:38:45,2026-03-26 10:03:16,0
79,"Cape Cod Comfort Solutions, LLC",,Centerville,MA,02632,United States,508-771-0365,cccomfortsolutions@comcast.net,https://www.capecodcomfortsolutions.com,,0,,0,No,No,No,No,Yes,C3-14466,41.6395483,-70.3297624,47.584651426444694,nate_hvac_certified_contractors,https://natex.org/homeowner/find-a-contractor-with-nate-certified-technicians/,2026-03-26T10:03:16.038344+00:00,20260326_094831,aeaa718b893c4d64d9634f1266b06f1d,2026-03-25 21:38:45,2026-03-26 10:03:16,0
80,"Ultra Geothermal, Inc.",358 U.S. 4,Barrington,NH,03825,United States,603-868-7878,drice@ultrageothermal.com,https://www.ultrageothermal.com,,0,"Amana, Bryant",2,No,No,No,No,Yes,C3-13034,43.1516303,-71.0268925,74.0139012268754,nate_hvac_certified_contractors,https://natex.org/homeowner/find-a-contractor-with-nate-certified-technicians/,2026-03-26T10:03:16.038344+00:00,20260326_094831,2c972334b7308d185a90733373633277,2026-03-25 21:38:45,2026-03-26 10:03:16,0
81,Robies Heating and Cooling,279 Yarmouth Road,Hyannis,MA,02601,United States,508-775-3083,john@robies.com,https://www.robies.com,,3,"Bryant, Carrier",2,Yes,No,No,No,Yes,C3-78418,41.662012,-70.274889,1.136479137128813,nate_hvac_certified_contractors,https://natex.org/homeowner/find-a-contractor-with-nate-certified-technicians/,2026-03-26T10:03:16.038344+00:00,20260326_094831,de5236269a3ccb4a812e0848727f5d7e,2026-03-25 21:38:45,2026-03-26 10:03:16,0
82,E.F. Winslow,8 Reardon Cir,South Yarmouth,MA,02664,United States,508-394-7778,,https://www.efwinslow.com,,0,,0,No,No,No,No,Yes,C3-79893,41.6901889,-70.1907109,5.8640748753156675,nate_hvac_certified_contractors,https://natex.org/homeowner/find-a-contractor-with-nate-certified-technicians/,2026-03-26T10:03:16.038344+00:00,20260326_094831,0463102b16663614b7d1cd259dc40602,2026-03-25 21:38:45,2026-03-26 10:03:16,0
83,"Harwich Port Heating, Cooling & Electric Inc.",461 Lower County Road,Harwich Port,MA,02646,United States,508-432-3959,hvacreaton@comcast.net,https://www.trane.com,,0,,0,No,No,No,No,Yes,C3-95270,41.6673987,-70.0795237,11.250415277769841,nate_hvac_certified_contractors,https://natex.org/homeowner/find-a-contractor-with-nate-certified-technicians/,2026-03-26T10:03:16.038344+00:00,20260326_094831,7e8b78e3363d8ddd2adb649f8448a031,2026-03-25 21:38:45,2026-03-26 10:03:16,0
84,Souza's Heating and Air Conditioning,50 Lots Hollow Road,Orleans,MA,02653,United States,508-255-1669,jss1@souzaheatandcooling.com,,,0,,0,No,No,No,No,Yes,C3-10362,41.774734,-69.9995749,17.28109338926984,nate_hvac_certified_contractors,https://natex.org/homeowner/find-a-contractor-with-nate-certified-technicians/,2026-03-26T10:03:16.038344+00:00,20260326_094831,a7f784f2e02a75d7f2b1d501e5dc45b0,2026-03-25 21:38:45,2026-03-26 10:03:16,0
85,Lennox NAS,3511 NE 22nd Ave,Ft Lauderdale,FL,33308,United States,904-838-6047,paul.foden@lennoxnas.com,https://www.lennoxnas.com/,,7,Lennox,1,Yes,No,No,No,Yes,C3-40785,26.1706232,-80.1181262,1205.5907882701733,nate_hvac_certified_contractors,https://natex.org/homeowner/find-a-contractor-with-nate-certified-technicians/,2026-03-26T10:03:16.038344+00:00,20260326_094831,9b64e2558adace7c0dd5be34d6b9ff8e,2026-03-25 21:38:45,2026-03-26 10:03:16,0
86,Calibrating Air Heating & Cooling Inc.,4575 Galley Rd Ste 100B,Colorado Springs,CO,80915,United States,719-491-2971,bartf@calibratingair.com,https://www.calibratingair.com,Basic,2,"Goodman, Lennox, Rheem, Trane",4,Yes,Yes,No,No,Yes,C3-40502,38.8466301,-104.7427423,1819.1105247030525,nate_hvac_certified_contractors,https://natex.org/homeowner/find-a-contractor-with-nate-certified-technicians/,2026-03-26T10:03:16.038344+00:00,20260326_094831,cca044f6afa2ea1e6a469603b9c38275,2026-03-25 21:38:45,2026-03-26 10:03:16,0
87,Yavapai Plumbing and Heating,5860 N Fulton Dr BLDGBLDG,Prescott Valley,AZ,86314,United States,928-776-7025,yphservice@ypeinc.com,https://www.ypeinc.com,,0,"Amana, American Standard, Bryant, Carrier, Goodman, Heil, International Comfort Products, Lennox, Nordyne, Rheem, Ruud, Trane, WaterFurnace, York",14,Yes,Yes,Yes,No,Yes,C3-40377,34.6272478,-112.3233616,2316.2023643382986,nate_hvac_certified_contractors,https://natex.org/homeowner/find-a-contractor-with-nate-certified-technicians/,2026-03-26T10:03:16.038344+00:00,20260326_094831,426fee443e4a3fdb3590f7688803c724,2026-03-25 21:38:45,2026-03-26 10:03:16,0
88,National Refrigeration,3600 W Shore Rd,Warwick,RI,02886,United States,401-737-2000,,https://nhvacservice.com,,0,Carrier,1,Yes,No,No,No,Yes,C3-28828,41.698425,-71.450812,14.473921309937554,nate_hvac_certified_contractors,https://natex.org/homeowner/find-a-contractor-with-nate-certified-technicians/,2026-03-26T10:03:16.038344+00:00,20260326_094831,0d03cbfe0c774139ca5ee6235663074c,2026-03-25 21:38:45,2026-03-26 10:03:16,0
89,Marc's Sheet Metal Inc.,37 9th St,Warren,MA,02720,United States,508-675-3180,,https://www.lennoxdealer.com/marcssheetmetal/,,0,,0,No,No,No,No,Yes,C3-12024,41.7182,-71.14,14.973187952916847,nate_hvac_certified_contractors,https://natex.org/homeowner/find-a-contractor-with-nate-certified-technicians/,2026-03-26T10:03:16.038344+00:00,20260326_094831,aa290cf85185e00845af5362cd1b4520,2026-03-25 21:38:45,2026-03-26 10:03:16,0
90,Mutual Engineering,25 stafford st,Warwick,RI,02886,United States,401-351-3900,tomdarl@cox.net,,,0,,0,No,No,No,No,Yes,C3-77772,41.729121,-71.464879,16.62139652413886,nate_hvac_certified_contractors,https://natex.org/homeowner/find-a-contractor-with-nate-certified-technicians/,2026-03-26T10:03:16.038344+00:00,20260326_094831,944c48108d0f6a087147248f77d24baf,2026-03-25 21:38:45,2026-03-26 10:03:16,0
91,Regan Heating and Air Conditioning,235 Georgia Avenue,Providence,RI,02905,United States,401-461-8100,emccann@reganhvac.com,https://www.reganhvac.com,,0,,0,No,No,No,No,Yes,C3-94891,41.7913843,-71.4020166,19.036839252807603,nate_hvac_certified_contractors,https://natex.org/homeowner/find-a-contractor-with-nate-certified-technicians/,2026-03-26T10:03:16.038344+00:00,20260326_094831,3f8dd3dce3bfe0a7a4d0d198236e61b9,2026-03-25 21:38:45,2026-03-26 10:03:16,0
92,JMB Mechanical Inc.,,Cranston,RI,02920,United States,401-944-7500,jmb@110.net,,,0,,0,No,No,No,No,Yes,C3-97377,41.7716,-71.4659,19.139838413157555,nate_hvac_certified_contractors,https://natex.org/homeowner/find-a-contractor-with-nate-certified-technicians/,2026-03-26T10:03:16.038344+00:00,20260326_094831,fdf078dc1167d8676d08dafe29c8e21b,2026-03-25 21:38:45,2026-03-26 10:03:16,0
93,Providence Mechanical Services LLC,4 Glossop St,Providence,RI,02911,United States,401-578-9030,pmshvac@cox.net,,,0,,0,No,No,No,No,Yes,C3-96203,41.8386103,-71.4693077,23.348145585481646,nate_hvac_certified_contractors,https://natex.org/homeowner/find-a-contractor-with-nate-certified-technicians/,2026-03-26T10:03:16.038344+00:00,20260326_094831,959c6d26864316a597667cdfc35318c3,2026-03-25 21:38:45,2026-03-26 10:03:16,0
94,GB Heating & Air Conditioning,25 Danbury Circle,Amherst,NH,03031,United States,603-801-9227,garrett@gbheating.com,https://www.gbheating.com,,0,,0,No,No,No,No,Yes,C3-63434,42.83595,-71.5792647,2.0366955297078606,nate_hvac_certified_contractors,https://natex.org/homeowner/find-a-contractor-with-nate-certified-technicians/,2026-03-26T10:03:16.038344+00:00,20260326_094831,4ba1e2ccc9970a63a4191b6fa7e02404,2026-03-25 21:38:45,2026-03-26 10:03:16,0
95,Sanford Temperature Control Inc.,292 Nashua Street,Milford,NH,03055,United States,603-672-1643,dsanford@sanfordtemp.com,https://www.sanfordtemp.com,,0,,0,No,No,No,No,Yes,C3-29256,42.8335845,-71.6447279,2.483137001809031,nate_hvac_certified_contractors,https://natex.org/homeowner/find-a-contractor-with-nate-certified-technicians/,2026-03-26T10:03:16.038344+00:00,20260326_094831,d19511c6137566f5771571fbbae26fdc,2026-03-25 21:38:45,2026-03-26 10:03:16,0
96,"Custom Climates HVAC, LLC",465 DW Highway,Merrimack,NH,03054,United States,603-262-1623,jon@nh-hvac.com,https://www.nh-hvac.com,,0,,0,No,No,No,No,Yes,C3-70615,42.8657759,-71.4932725,5.832853249985588,nate_hvac_certified_contractors,https://natex.org/homeowner/find-a-contractor-with-nate-certified-technicians/,2026-03-26T10:03:16.038344+00:00,20260326_094831,48ed6a66926ccb8305d2ab17496eca8b,2026-03-25 21:38:45,2026-03-26 10:03:16,0
97,Chris Kelsall HVAC,po box 4191,manchester,NH,03108,United States,603-231-9388,ckhvac2@yahoo.com,https://ckhvac.com,,0,,0,No,No,No,No,Yes,C3-55092,42.9521,-71.6539,6.980624382057409,nate_hvac_certified_contractors,https://natex.org/homeowner/find-a-contractor-with-nate-certified-technicians/,2026-03-26T10:03:16.038344+00:00,20260326_094831,19698c6a5e0e28193db98cca75f64457,2026-03-25 21:38:45,2026-03-26 10:03:16,0
98,"Absolute Mechanical Systems, LLC",2 Quimby Road P.O. Box 128,Brookline,NH,03033,United States,603-249-9800,kevin@absolutemechanical.com,https://www.absolutemechanical.com,,0,,0,No,No,No,No,Yes,C3-97093,42.7543797,-71.673218,7.82540793860653,nate_hvac_certified_contractors,https://natex.org/homeowner/find-a-contractor-with-nate-certified-technicians/,2026-03-26T10:03:16.038344+00:00,20260326_094831,2b4f934068de805d89c79379d859ad3d,2026-03-25 21:38:45,2026-03-26 10:03:16,0
99,AHC Heating & A.C.,17 Inca dr.,nashua,NH,03063,United States,603-557-0863,flexht1@verizon.net,,,0,,0,No,No,No,No,Yes,C3-38292,42.7515466,-71.5085667,8.841515591548097,nate_hvac_certified_contractors,https://natex.org/homeowner/find-a-contractor-with-nate-certified-technicians/,2026-03-26T10:03:16.038344+00:00,20260326_094831,512226ece10a7ee53e65802bc1311a85,2026-03-25 21:38:45,2026-03-26 10:03:16,0
100,"Wilkins Mechanical Services, Inc",7 Bellemore Dr#1,Bedford,NH,03110,United States,603-647-7741,todd@wmshvac.com,https://www.wmshvac.com,,0,,0,No,No,No,No,Yes,C3-23003,42.9726635,-71.5121928,9.34020811923216,nate_hvac_certified_contractors,https://natex.org/homeowner/find-a-contractor-with-nate-certified-technicians/,2026-03-26T10:03:16.038344+00:00,20260326_094831,5b57f314b16d87d0ca0797323a7cee14,2026-03-25 21:38:45,2026-03-26 10:03:16,0
